{"address_components": [{"long_name": "Block 406", "short_name": "Block 406", "types": ["premise"]}, {"long_name": "406", "short_name": "406", "types": ["street_number"]}, {"long_name": "Ang Mo Kio Avenue 10", "short_name": "Ang Mo Kio Ave 10", "types": ["route"]}, {"long_name": "Ang Mo Kio", "short_name": "Ang Mo Kio", "types": ["neighborhood", "political"]}, {"long_name": "Singapore", "short_name": "Singapore", "types": ["locality", "political"]}, {"long_name": "Singapore", "short_name": "SG", "types": ["country", "political"]}, {"long_name": "560406", "short_name": "560406", "types": ["postal_code"]}], "formatted_address": "406 Ang Mo Kio Ave 10, Block 406, Singapore 560406", "geometry": {"bounds": {"northeast": {"lat": 1.3622326, "lng": 103.8543164}, "southwest": {"lat": 1.3618174, "lng": 103.8534528}}, "location": {"lat": 1.3620328, "lng": 103.8538267}, "location_type": "ROOFTOP", "viewport": {"northeast": {"lat": 1.363370580291502, "lng": 103.8552335802915}, "southwest": {"lat": 1.360672619708498, "lng": 103.8525356197085}}}, "partial_match": true, "place_id": "ChIJn0ryBh0X2jERDWwOYYqMArI", "types": ["premise"]}